{
    "Temples":[
	
    {"Name": "Aba Nigeria Temple",
    "Location":"Aba, Abia, Nigeria",
    "Dedicated":"7 August 2005" ,
    "Appointment": "https://www.churchofjesuschrist.org/temples/schedule/appointment?lang=eng" ,
	"Phone":"TBA",
	"Address":"TBA",
    "imageurl":"TBA", 
    "Services":"TBA" ,
    "Closures": "TBA",
    "History":"TBA" },
    {"Name": " Accra Ghana Temple",
    "Location":"Accra, Greater Accra, Ghana",
    "Dedicated":"11 January 2004" ,
    "Appointment": "https://www.churchofjesuschrist.org/temples/schedule/appointment?lang=eng"  ,
    "Phone":"TBA",
    "Address":"TBA",
    "imageurl":"TBA", 
    "Services":"TBA" ,
    "Closures": "TBA",
    "History":"TBA" },
    {"Name": "Adelaide Australia Temple",
    "Location":"Marden, South Australia, Australia",
    "Dedicated":"15 June 2000" ,
    "Appointment": "https://www.churchofjesuschrist.org/temples/schedule/appointment?lang=eng"  ,
    "Phone":"TBA",
    "Address":"TBA",
    "imageurl":"TBA", 
    "Services":"TBA" ,
    "Closures": "TBA",
    "History":"TBA" },
    {"Name": "Albuquerque New Mexico Temple",
    "Location":"Albuquerque, New Mexico, United States",
    "Dedicated":"5 March 2000" ,
    "Appointment": "https://www.churchofjesuschrist.org/temples/schedule/appointment?lang=eng"  ,
    "Phone":"TBA",
    "Address":"TBA",
    "imageurl":"TBA", 
    "Services":"TBA" ,
    "Closures": "TBA",
    "History":"TBA" },
    {"Name": "Anchorage Alaska Temple",
    "Location":"Anchorage, Alaska, United States",
    "Dedicated":"9 January 1999" ,
    "Appointment": "https://www.churchofjesuschrist.org/temples/schedule/appointment?lang=eng"  ,
     "Phone":"TBA",
    "Address":"TBA",
    "imageurl":"TBA", 
    "Services":"TBA" ,
    "Closures": "TBA",
    "History":"TBA" },
    {"Name": "Apia Samoa Temple",
    "Location":"Apia, Pesega, Samoa",
    "Dedicated":"5 August 1983" ,
    "Appointment": "https://www.churchofjesuschrist.org/temples/schedule/appointment?lang=eng"  ,
    "Phone":"TBA",
    "Address":"TBA",
    "imageurl":"TBA", 
    "Services":"TBA" ,
    "Closures": "TBA",
    "History":"TBA" },
    {"Name": "Arequipa Peru Temple",
    "Location":"Arequipa, Peru",
    "Dedicated":"15 December 2019" ,
    "Appointment": "https://www.churchofjesuschrist.org/temples/schedule/appointment?lang=eng"  ,
    "Phone":"TBA",
    "Address":"TBA",
    "imageurl":"TBA", 
    "Services":"TBA" ,
    "Closures": "TBA",
    "History":"TBA" },
    {"Name": "Asunción Paraguay Temple",
    "Location":"Asunción, Alto Paraguay, Paraguay",
    "Dedicated":"19 May 2002" ,
    "Appointment": "https://www.churchofjesuschrist.org/temples/schedule/appointment?lang=eng"  ,
    "Phone":"TBA",
    "Address":"TBA",
    "imageurl":"TBA", 
    "Services":"TBA" ,
    "Closures": "TBA",
    "History":"TBA" },
    {"Name": "Atlanta Georgia Temple",
    "Location":"Sandy Springs, Georgia, United States",
    "Dedicated":"1 June 1983" ,
     "Appointment": "https://www.churchofjesuschrist.org/temples/schedule/appointment?lang=eng"  ,
    "Phone":"TBA",
    "Address":"TBA",
    "imageurl":"TBA", 
    "Services":"TBA" ,
    "Closures": "TBA",
    "History":"TBA" },
    {"Name": "Barranquilla Colombia Temple",
    "Location":"Barranquilla, Colombia",
    "Dedicated":"9 December 2018" ,
    "Appointment": "https://www.churchofjesuschrist.org/temples/schedule/appointment?lang=eng"  ,
    "Phone":"TBA",
    "Address":"TBA",
    "imageurl":"TBA", 
    "Services":"TBA" ,
    "Closures": "TBA",
    "History":"TBA" },
    {"Name": "Baton Rouge Louisiana Temple",
    "Location":"Baton Rouge, Louisiana, United States",
    "Dedicated":"16 July 2000" ,
    "Appointment": "https://www.churchofjesuschrist.org/temples/schedule/appointment?lang=eng"  ,
    "Phone":"TBA",
    "Address":"TBA",
    "imageurl":"TBA", 
    "Services":"TBA" ,
    "Closures": "TBA",
    "History":"TBA" },
    {"Name": "Bern Switzerland Temple",
    "Location":"Zollikofen,Bern, Switzerland",
    "Dedicated":"11 September 1955" ,
    "Appointment": "https://www.churchofjesuschrist.org/temples/schedule/appointment?lang=eng"  ,
    "Phone":"TBA",
    "Address":"TBA",
    "imageurl":"TBA", 
    "Services":"TBA" ,
    "Closures": "TBA",
    "History":"TBA" },
    {"Name": "Billings Montana Temple",
    "Location":"Billings, Montana, United States",
    "Dedicated":"20 November 1999" ,
    "Appointment": "https://www.churchofjesuschrist.org/temples/schedule/appointment?lang=eng"  ,
    "Phone":"TBA",
    "Address":"TBA",
    "imageurl":"TBA", 
    "Services":"TBA" ,
    "Closures": "TBA",
    "History":"TBA" },
    {"Name": "Birmingham Alabama Temple",
    "Location":"Gardendale, Alabama, United States",
    "Dedicated":"3 September 2000" ,
    "Appointment": "https://www.churchofjesuschrist.org/temples/schedule/appointment?lang=eng"  ,
    "Phone":"TBA",
    "Address":"TBA",
    "imageurl":"TBA", 
    "Services":"TBA" ,
    "Closures": "TBA",
    "History":"TBA" },
    {"Name": "Bismarck North Dakota Temple",
    "Location":"Bismarck, North Dakota, United States",
    "Dedicated":"19 September 1999" ,
    "Appointment": "https://www.churchofjesuschrist.org/temples/schedule/appointment?lang=eng"  ,
    "Phone":"TBA",
    "Address":"TBA",
    "imageurl":"TBA", 
    "Services":"TBA" ,
    "Closures": "TBA",
    "History":"TBA" },
    {"Name": "Bogotá Colombia Temple",
    "Location":"Bogotá, Distrito Capital, Colombia",
    "Dedicated":"24 April 1999" ,
    "Appointment": "https://www.churchofjesuschrist.org/temples/schedule/appointment?lang=eng"  ,
    "Phone":"TBA",
    "Address":"TBA",
    "imageurl":"TBA", 
    "Services":"TBA" ,
    "Closures": "TBA",
    "History":"TBA" },
    {"Name": "Boise Idaho Temple",
    "Location":"Boise, Idaho, United States",
    "Dedicated":"25 May 1984" ,
    "Appointment": "https://www.churchofjesuschrist.org/temples/schedule/appointment?lang=eng"  ,
    "Phone":"TBA",
    "Address":"TBA",
    "imageurl":"TBA", 
    "Services":"TBA" ,
    "Closures": "TBA",
    "History":"TBA" },
    {"Name": "Boston Massachusetts Temple",
    "Location":"Belmont,  Massachusetts, United States",
    "Dedicated":"1 October 2000" ,
    "Appointment": "https://www.churchofjesuschrist.org/temples/schedule/appointment?lang=eng"  ,
    "Phone":"TBA",
    "Address":"TBA",
    "imageurl":"TBA", 
    "Services":"TBA" ,
    "Closures": "TBA",
    "History":"TBA" },
    {"Name": "Bountiful Utah Temple",
    "Location":"Bountiful,  Utah, United States",
    "Dedicated":"8 January 1995" ,
    "Appointment": "https://www.churchofjesuschrist.org/temples/schedule/appointment?lang=eng"  ,
    "Phone":"TBA",
    "Address":"TBA",
    "imageurl":"TBA", 
    "Services":"TBA" ,
    "Closures": "TBA",
    "History":"TBA" },
    {"Name": "Brigham City Utah Temple",
    "Location":"Brigham City,  Utah, United States",
    "Dedicated":"23 September 2012" ,
    "Appointment": "https://www.churchofjesuschrist.org/temples/schedule/appointment?lang=eng"  ,
    "Phone":"TBA",
    "Address":"TBA",
    "imageurl":"TBA", 
    "Services":"TBA" ,
    "Closures": "TBA",
    "History":"TBA" },
    {"Name": "Brisbane Australia Temple",
    "Location":"Kangaroo Point,  Queensland, Australia",
    "Dedicated":"15 June 2003" ,
    "Appointment": "https://www.churchofjesuschrist.org/temples/schedule/appointment?lang=eng"  ,
    "Phone":"TBA",
     "Address":"TBA",
    "imageurl":"TBA", 
    "Services":"TBA" ,
    "Closures": "TBA",
    "History":"TBA" },
    {"Name": "Buenos Aires Argentina Temple",
    "Location":"Ciudad Evita,  Buenos Aires, Argentina",
    "Dedicated":"17 January 1986" ,
    "Appointment": "https://www.churchofjesuschrist.org/temples/schedule/appointment?lang=eng"  ,
    "Phone":"TBA",
    "Address":"TBA",
    "imageurl":"TBA", 
    "Services":"TBA" ,
    "Closures": "TBA",
    "History":"TBA" },
    {"Name": "Calgary Alberta Temple",
    "Location":"Calgary,  Alberta, Canada",
    "Dedicated":"28 October 2012" ,
    "Appointment": "https://www.churchofjesuschrist.org/temples/schedule/appointment?lang=eng"  ,
    "Phone":"TBA",
    "Address":"TBA",
    "imageurl":"TBA", 
    "Services":"TBA" ,
    "Closures": "TBA",
    "History":"TBA" },
    {"Name": "Campinas Brazil Temple",
    "Location":"Campinas,  Sao Paulo, Brazil",
    "Dedicated":"17 May 2002" ,
    "Appointment": "https://www.churchofjesuschrist.org/temples/schedule/appointment?lang=eng"  ,
    "Phone":"TBA",
    "Address":"TBA",
    "imageurl":"TBA", 
    "Services":"TBA" ,
    "Closures": "TBA",
    "History":"TBA" },
    {"Name": "Caracas Venezuela Temple",
    "Location":"Caracas,  Dependencias Federales, Venezuela",
    "Dedicated":"20 August 2000" ,
    "Appointment": "https://www.churchofjesuschrist.org/temples/schedule/appointment?lang=eng"  ,
    "Phone":"TBA",
    "Address":"TBA",
    "imageurl":"TBA", 
    "Services":"TBA" ,
    "Closures": "TBA",
    "History":"TBA" },
    {"Name": "Cardston Alberta Temple",
    "Location":"Cardston,  Alberta, Canada",
    "Dedicated":"26 August 1923" ,
    "Appointment": "https://www.churchofjesuschrist.org/temples/schedule/appointment?lang=eng"  ,
    "Phone":"TBA",
     "Address":"TBA",
    "imageurl":"TBA", 
    "Services":"TBA" ,
    "Closures": "TBA",
    "History":"TBA" },
    {"Name": "Cebu City Philippines Temple",
    "Location":"Cebu City,  Cebu, Philippines",
    "Dedicated":"13 June 2010" ,
    "Appointment": "https://www.churchofjesuschrist.org/temples/schedule/appointment?lang=eng"  ,
    "Phone":"TBA",
    "Address":"TBA",
    "imageurl":"TBA", 
    "Services":"TBA" ,
    "Closures": "TBA",
    "History":"TBA" },
    {"Name": "Cedar City Utah Temple",
    "Location":"Cedar City,  Utah, United States",
    "Dedicated":"10 December 2017" ,
    "Appointment": "https://www.churchofjesuschrist.org/temples/schedule/appointment?lang=eng"  ,
    "Phone":"TBA",
    "Address":"TBA",
    "imageurl":"TBA", 
    "Services":"TBA" ,
    "Closures": "TBA",
    "History":"TBA" },
    {"Name": "Chicago Illinois Temple",
    "Location":"Glenview, Illinois,  United States",
    "Dedicated":"9 August 1985" ,
    "Appointment": "https://www.churchofjesuschrist.org/temples/schedule/appointment?lang=eng"  ,
    "Phone":"TBA",
    "Address":"TBA",
    "imageurl":"TBA", 
    "Services":"TBA" ,
    "Closures": "TBA",
    "History":"TBA" },
    {"Name": "Ciudad Juárez Mexico Temple",
    "Location":"Ciudad Juárez, Chihuahua, Mexico",
    "Dedicated":"26 February 2000" ,
    "Appointment": "https://www.churchofjesuschrist.org/temples/schedule/appointment?lang=eng"  ,
    "Phone":"TBA",
    "Address":"TBA",
    "imageurl":"TBA", 
    "Services":"TBA" ,
    "Closures": "TBA",
    "History":"TBA" },
    {"Name": "Cochabamba Bolivia Temple",
    "Location":"Alto Queru Queru, Cochabamba, Bolivia",
    "Dedicated":"30 April 2000" ,
    "Appointment": "https://www.churchofjesuschrist.org/temples/schedule/appointment?lang=eng"  ,
    "Phone":"TBA",
    "Address":"TBA",
    "imageurl":"TBA", 
    "Services":"TBA" ,
    "Closures": "TBA",
    "History":"TBA" },
    {"Name": "Colonia Juárez Chihuahua Mexico Temple",
    "Location":"Colonia Juárez, Chihuahua, Mexico",
    "Dedicated":"6 March 1999" ,
     "Appointment": "https://www.churchofjesuschrist.org/temples/schedule/appointment?lang=eng"  ,
    "Phone":"TBA",
    "Address":"TBA",
    "imageurl":"TBA", 
    "Services":"TBA" ,
    "Closures": "TBA",
    "History":"TBA" },
    {"Name": "Columbia River Washington Temple",
    "Location":"Richland, Washington, United States",
    "Dedicated":"18 November 2001" ,
    "Appointment": "https://www.churchofjesuschrist.org/temples/schedule/appointment?lang=eng"  ,
     "Phone":"TBA",
    "Address":"TBA",
    "imageurl":"TBA", 
    "Services":"TBA" ,
    "Closures": "TBA",
    "History":"TBA" },
    {"Name": "Columbia South Carolina Temple",
    "Location":"Hopkins, South Carolina, United States",
    "Dedicated":"16 October 1999" ,
    "Appointment": "https://www.churchofjesuschrist.org/temples/schedule/appointment?lang=eng"  ,
    "Phone":"TBA",
    "Address":"TBA",
    "imageurl":"TBA", 
    "Services":"TBA" ,
    "Closures": "TBA",
    "History":"TBA" },
    {"Name": "Concepción Chile Temple",
    "Location":"Concepcion, Chile",
    "Dedicated":"28 October 2018" ,
     "Appointment": "https://www.churchofjesuschrist.org/temples/schedule/appointment?lang=eng"  ,
    "Phone":"TBA",
    "Address":"TBA",
    "imageurl":"TBA", 
    "Services":"TBA" ,
    "Closures": "TBA",
    "History":"TBA" },
    {"Name": "Copenhagen Denmark Temple",
    "Location":"Frederiksberg, Hovedstaden, Denmark",
    "Dedicated":"23 May 2004" ,
    "Appointment": "https://www.churchofjesuschrist.org/temples/schedule/appointment?lang=eng"  ,
     "Phone":"TBA",
    "Address":"TBA",
    "imageurl":"TBA", 
    "Services":"TBA" ,
    "Closures": "TBA",
    "History":"TBA" },
    {"Name": "Córdoba Argentina Temple",
    "Location":"Córdoba, Argentina",
    "Dedicated":"17 May 2015" ,
    "Appointment": "https://www.churchofjesuschrist.org/temples/schedule/appointment?lang=eng"  ,
    "Phone":"TBA",
    "Address":"TBA",
    "imageurl":"TBA", 
    "Services":"TBA" ,
    "Closures": "TBA",
    "History":"TBA" },
    {"Name": "Curitiba Brazil Temple",
    "Location":"Curitiba, Parana, Brazil",
    "Dedicated":"1 June 2008" ,
    "Appointment": "https://www.churchofjesuschrist.org/temples/schedule/appointment?lang=eng"  ,
    "Phone":"TBA",
    "Address":"TBA",
    "imageurl":"TBA", 
    "Services":"TBA" ,
    "Closures": "TBA",
    "History":"TBA" },
    {"Name": "Dallas Texas Temple",
    "Location":"Dallas, Texas, United States",
    "Dedicated":"19 October 1984" ,
    "Appointment": "https://www.churchofjesuschrist.org/temples/schedule/appointment?lang=eng"  ,
    "Phone":"TBA",
    "Address":"TBA",
    "imageurl":"TBA", 
    "Services":"TBA" ,
    "Closures": "TBA",
    "History":"TBA" },
    {"Name": "Denver Colorado Temple",
    "Location":"Centennial, Colorado, United States",
    "Dedicated":"24 October 1986" ,
    "Appointment": "https://www.churchofjesuschrist.org/temples/schedule/appointment?lang=eng"  ,
    "Phone":"TBA",
    "Address":"TBA",
    "imageurl":"TBA", 
    "Services":"TBA" ,
    "Closures": "TBA",
    "History":"TBA" },
    {"Name": "Detroit Michigan Temple",
    "Location":"Bloomfield Hills, Michigan, United States",
    "Dedicated":"23 October 1999" ,
    "Appointment": "https://www.churchofjesuschrist.org/temples/schedule/appointment?lang=eng"  ,
    "Phone":"TBA",
    "Address":"TBA",
    "imageurl":"TBA", 
    "Services":"TBA" ,
    "Closures": "TBA",
    "History":"TBA" },
    {"Name": "Draper Utah Temple",
    "Location":"Draper, Utah, United States",
    "Dedicated":"20 March 2009" ,
    "Appointment": "https://www.churchofjesuschrist.org/temples/schedule/appointment?lang=eng"  ,
    "Phone":"TBA",
    "Address":"TBA",
    "imageurl":"TBA", 
    "Services":"TBA" ,
    "Closures": "TBA",
    "History":"TBA" },
    {"Name": "Durban South Africa Temple",
    "Location":"Durban, South Africa",
    "Dedicated":"16 February 2020" ,
    "Appointment": "https://www.churchofjesuschrist.org/temples/schedule/appointment?lang=eng"  ,
    "Phone":"TBA",
    "Address":"TBA",
    "imageurl":"TBA", 
    "Services":"TBA" ,
    "Closures": "TBA",
    "History":"TBA" },
    {"Name": "Edmonton Alberta Temple",
    "Location":"Edmonton, Alberta, Canada",
    "Dedicated":"11 December 1999" ,
    "Appointment": "https://www.churchofjesuschrist.org/temples/schedule/appointment?lang=eng"  ,
     "Phone":"TBA",
    "Address":"TBA",
    "imageurl":"TBA", 
    "Services":"TBA" ,
    "Closures": "TBA",
    "History":"TBA" },
    {"Name": "Fort Collins Colorado Temple",
    "Location":"Fort Collins, Colorado, United States",
    "Dedicated":"16 October 2016" ,
    "Appointment": "https://www.churchofjesuschrist.org/temples/schedule/appointment?lang=eng"  ,
    "Phone":"TBA",
    "Address":"TBA",
    "imageurl":"TBA", 
    "Services":"TBA" ,
    "Closures": "TBA",
    "History":"TBA" },
    {"Name": "Fort Lauderdale Florida Temple",
    "Location":"Davie, Florida, United States",
    "Dedicated":"4 May 2014" ,
    "Appointment": "https://www.churchofjesuschrist.org/temples/schedule/appointment?lang=eng"  ,
    "Phone":"TBA",
    "Address":"TBA",
    "imageurl":"TBA", 
    "Services":"TBA" ,
    "Closures": "TBA",
    "History":"TBA" },
    {"Name": "Fortaleza Brazil Temple",
    "Location":"Fortaleza, Ceará, Brazil",
    "Dedicated":"2 June 2019" ,
    "Appointment": "https://www.churchofjesuschrist.org/temples/schedule/appointment?lang=eng"  ,
     "Phone":"TBA",
    "Address":"TBA",
    "imageurl":"TBA", 
    "Services":"TBA" ,
    "Closures": "TBA",
    "History":"TBA" },
    {"Name": "Frankfurt Germany Temple",
    "Location":"Friedrichsdorf, Hessen, Germany",
    "Dedicated":"28 August 1987" ,
     "Appointment": "https://www.churchofjesuschrist.org/temples/schedule/appointment?lang=eng"  ,
    "Phone":"TBA",
    "Address":"TBA",
    "imageurl":"TBA", 
    "Services":"TBA" ,
    "Closures": "TBA",
    "History":"TBA" },
    {"Name": "Freiberg Germany Temple",
    "Location":"Freiberg, Sachsen, Germany",
    "Dedicated":"29 June 1985" ,
    "Appointment": "https://www.churchofjesuschrist.org/temples/schedule/appointment?lang=eng"  ,
    "Phone":"TBA",
    "Address":"TBA",
    "imageurl":"TBA", 
    "Services":"TBA" ,
    "Closures": "TBA",
    "History":"TBA" },
    {"Name": "Fresno California Temple",
    "Location":"Fresno, California, United States",
    "Dedicated":"9 April 2000" ,
    "Appointment": "https://www.churchofjesuschrist.org/temples/schedule/appointment?lang=eng"  ,
    "Phone":"TBA",
    "Address":"TBA",
    "imageurl":"TBA", 
    "Services":"TBA" ,
    "Closures": "TBA",
    "History":"TBA" },
    {"Name": "Fukuoka Japan Temple",
    "Location":"Fukuoka{shi, Fukuoka, Japan",
    "Dedicated":"11 June 2000" ,
    "Appointment": "https://www.churchofjesuschrist.org/temples/schedule/appointment?lang=eng"  ,
    "Phone":"TBA",
    "Address":"TBA",
    "imageurl":"TBA", 
    "Services":"TBA" ,
    "Closures": "TBA",
    "History":"TBA" },
    {"Name": "Gilbert Arizona Temple",
    "Location":"Gilbert, Arizona, United States",
    "Dedicated":"2 March 2014" ,
    "Appointment": "https://www.churchofjesuschrist.org/temples/schedule/appointment?lang=eng"  ,
    "Phone":"TBA",
    "Address":"TBA",
    "imageurl":"TBA", 
    "Services":"TBA" ,
    "Closures": "TBA",
    "History":"TBA" },
    {"Name": "Guadalajara Mexico Temple",
    "Location":"Zapopan, Jalisco, Mexico",
    "Dedicated":"29 April 2001" ,
    "Appointment": "https://www.churchofjesuschrist.org/temples/schedule/appointment?lang=eng"  ,
    "Phone":"TBA",
    "Address":"TBA",
    "imageurl":"TBA", 
    "Services":"TBA" ,
    "Closures": "TBA",
    "History":"TBA" },
    {"Name": "Guatemala City Guatemala Temple",
    "Location":"Guatemala City, Guatemala, Guatemala",
    "Dedicated":"14 December 1984" ,
    "Appointment": "https://www.churchofjesuschrist.org/temples/schedule/appointment?lang=eng"  ,
    "Phone":"TBA",
    "Address":"TBA",
    "imageurl":"TBA", 
    "Services":"TBA" ,
    "Closures": "TBA",
    "History":"TBA" },
    {"Name": "Guayaquil Ecuador Temple",
    "Location":"Guayaquil, Guayas, Ecuador",
    "Dedicated":"1 August 1999" ,
    "Appointment": "https://www.churchofjesuschrist.org/temples/schedule/appointment?lang=eng"  ,
    "Phone":"TBA",
    "Address":"TBA",
    "imageurl":"TBA", 
    "Services":"TBA" ,
    "Closures": "TBA",
    "History":"TBA" },
    {"Name": "Halifax Nova Scotia Temple",
    "Location":"Dartmouth, Nova Scotia, Canada",
    "Dedicated":"14 November 1999" ,
    "Appointment": "https://www.churchofjesuschrist.org/temples/schedule/appointment?lang=eng"  ,
    "Phone":"TBA",
    "Address":"TBA",
    "imageurl":"TBA", 
    "Services":"TBA" ,
    "Closures": "TBA",
    "History":"TBA" },
    {"Name": "Hartford Connecticut Temple",
    "Location":"Farmington, Connecticut, United States",
    "Dedicated":"20 November 2016" ,
    "Appointment": "https://www.churchofjesuschrist.org/temples/schedule/appointment?lang=eng"  ,
    "Phone":"TBA",
    "Address":"TBA",
    "imageurl":"TBA", 
    "Services":"TBA" ,
    "Closures": "TBA",
    "History":"TBA" },
    {"Name": "Helsinki Finland Temple",
    "Location":"Espoo, Uusimaa, Finland",
    "Dedicated":"22 October 2006" ,
    "Appointment": "https://www.churchofjesuschrist.org/temples/schedule/appointment?lang=eng"  ,
    "Phone":"TBA",
    "Address":"TBA",
    "imageurl":"TBA", 
    "Services":"TBA" ,
    "Closures": "TBA",
    "History":"TBA" },
    {"Name": "Hermosillo Sonora Mexico Temple",
    "Location":"Hermosillo, Sonora, Mexico",
    "Dedicated":"27 February 2000" ,
    "Appointment": "https://www.churchofjesuschrist.org/temples/schedule/appointment?lang=eng"  ,
    "Phone":"TBA",
    "Address":"TBA",
    "imageurl":"TBA", 
    "Services":"TBA" ,
    "Closures": "TBA",
    "History":"TBA" },
    {"Name": "Hong Kong China Temple",
    "Location":"Kowloon Tong, Kowloon City, Hong Kong",
    "Dedicated":"26 May 1996" ,
    "Appointment": "https://www.churchofjesuschrist.org/temples/schedule/appointment?lang=eng"  ,
    "Phone":"TBA",
    "Address":"TBA",
    "imageurl":"TBA", 
    "Services":"TBA" ,
    "Closures": "TBA",
    "History":"TBA" },
    {"Name": "Houston Texas Temple",
    "Location":"Spring, Texas, United States",
    "Dedicated":"26 August 2000" ,
    "Appointment": "https://www.churchofjesuschrist.org/temples/schedule/appointment?lang=eng"  ,
    "Phone":"TBA",
    "Address":"TBA",
    "imageurl":"TBA", 
    "Services":"TBA" ,
    "Closures": "TBA",
    "History":"TBA" },
    {"Name": "Idaho Falls Idaho Temple",
    "Location":"Idaho Falls, Idaho, United States",
    "Dedicated":"23 September 1945" ,
    "Appointment": "https://www.churchofjesuschrist.org/temples/schedule/appointment?lang=eng"  ,
    "Phone":"TBA",
    "Address":"TBA",
    "imageurl":"TBA", 
    "Services":"TBA" ,
    "Closures": "TBA",
    "History":"TBA" },
    {"Name": "Indianapolis Indiana Temple",
    "Location":"Carmel, Indiana, United States",
    "Dedicated":"23 August 2015" ,
    "Appointment": "https://www.churchofjesuschrist.org/temples/schedule/appointment?lang=eng"  ,
    "Phone":"TBA",
    "Address":"TBA",
    "imageurl":"TBA", 
    "Services":"TBA" ,
    "Closures": "TBA",
    "History":"TBA" },
    {"Name": "Johannesburg South Africa Temple",
    "Location":"Johannesburg, Gauteng, South Africa",
    "Dedicated":"24 August 1985" ,
    "Appointment": "https://www.churchofjesuschrist.org/temples/schedule/appointment?lang=eng"  ,
    "Phone":"TBA",
    "Address":"TBA",
    "imageurl":"TBA", 
    "Services":"TBA" ,
    "Closures": "TBA",
    "History":"TBA" },
    {"Name": "Jordan River Utah Temple",
    "Location":"South Jordan, Utah, United States",
    "Dedicated":"16 November 1981" ,
    "Appointment": "https://www.churchofjesuschrist.org/temples/schedule/appointment?lang=eng"  ,
    "Phone":"TBA",
    "Address":"TBA",
    "imageurl":"TBA", 
    "Services":"TBA" ,
    "Closures": "TBA",
    "History":"TBA" },
    {"Name": "Kansas City Missouri Temple",
    "Location":"Kansas City, Missouri, United States",
    "Dedicated":"6 May 2012" ,
    "Appointment": "https://www.churchofjesuschrist.org/temples/schedule/appointment?lang=eng"  ,
    "Phone":"TBA",
    "Address":"TBA",
    "imageurl":"TBA", 
    "Services":"TBA" ,
    "Closures": "TBA",
    "History":"TBA" },
    {"Name": "Kinshasa Democratic Republic of the Congo Temple",
    "Location":"Kinshasa,Democratic Republic of the Congo",
    "Dedicated":"14 April 2019" ,
    "Appointment": "https://www.churchofjesuschrist.org/temples/schedule/appointment?lang=eng"  ,
    "Phone":"TBA",
    "Address":"TBA",
    "imageurl":"TBA", 
    "Services":"TBA" ,
    "Closures": "TBA",
    "History":"TBA" },
    {"Name": "Kona Hawaii Temple",
    "Location":"Kailua{Kona, Hawaii, United States",
    "Dedicated":"23 January 2000" ,
    "Appointment": "https://www.churchofjesuschrist.org/temples/schedule/appointment?lang=eng"  ,
    "Phone":"TBA",
    "Address":"TBA",
    "imageurl":"TBA", 
    "Services":"TBA" ,
    "Closures": "TBA",
    "History":"TBA" },
    {"Name": "Kyiv Ukraine Temple",
    "Location":"Kyevo{Sviatoshyns’ky Rayon, Kyiv, Ukraine",
    "Dedicated":"29 August 2010" ,
    "Appointment": "https://www.churchofjesuschrist.org/temples/schedule/appointment?lang=eng"  ,
    "Phone":"TBA",
    "Address":"TBA",
    "imageurl":"TBA", 
    "Services":"TBA" ,
    "Closures": "TBA",
    "History":"TBA" },
    {"Name": "Laie Hawaii Temple",
    "Location":"Laie, Hawaii, United States",
    "Dedicated":"27 November 1919" ,
    "Appointment": "https://www.churchofjesuschrist.org/temples/schedule/appointment?lang=eng"  ,
    "Phone":"TBA",
    "Address":"TBA",
    "imageurl":"TBA", 
    "Services":"TBA" ,
    "Closures": "TBA",
    "History":"TBA" },
    {"Name": "Las Vegas Nevada Temple",
    "Location":"Las Vegas, Nevada, United States",
    "Dedicated":"16 December 1989" ,
    "Appointment": "https://www.churchofjesuschrist.org/temples/schedule/appointment?lang=eng"  ,
    "Phone":"TBA",
    "Address":"TBA",
    "imageurl":"TBA", 
    "Services":"TBA" ,
    "Closures": "TBA",
    "History":"TBA" },
    {"Name": "Lima Peru Temple",
    "Location":"La Molina, Lima, Peru",
    "Dedicated":"10 January 1986" ,
    "Appointment": "https://www.churchofjesuschrist.org/temples/schedule/appointment?lang=eng"  ,
    "Phone":"TBA",
    "Address":"TBA",
    "imageurl":"TBA", 
    "Services":"TBA" ,
    "Closures": "TBA",
    "History":"TBA" },
    {"Name": "Lisbon Portugal Temple",
    "Location":"Lisbon, Portugal",
    "Dedicated":"15 September 2019" ,
    "Appointment": "https://www.churchofjesuschrist.org/temples/schedule/appointment?lang=eng"  ,
    "Phone":"TBA",
    "Address":"TBA",
    "imageurl":"TBA", 
    "Services":"TBA" ,
    "Closures": "TBA",
    "History":"TBA" },
    {"Name": "Logan Utah Temple",
    "Location":"Logan, Utah, United States",
    "Dedicated":"17 May 1884" ,
    "Appointment": "https://www.churchofjesuschrist.org/temples/schedule/appointment?lang=eng"  ,
    "Phone":"TBA",
    "Address":"TBA",
    "imageurl":"TBA", 
    "Services":"TBA" ,
    "Closures": "TBA",
    "History":"TBA" },
    {"Name": "London England Temple",
    "Location":"Newchapel, Surrey, England",
    "Dedicated":"7 September 1958" ,
    "Appointment": "https://www.churchofjesuschrist.org/temples/schedule/appointment?lang=eng"  ,
    "Phone":"TBA",
    "Address":"TBA",
    "imageurl":"TBA", 
    "Services":"TBA" ,
    "Closures": "TBA",
    "History":"TBA" },
    {"Name": "Los Angeles California Temple",
    "Location":"Los Angeles, California, United States",
    "Dedicated":"11 March 1956" ,
    "Appointment": "https://www.churchofjesuschrist.org/temples/schedule/appointment?lang=eng"  ,
    "Phone":"TBA",
    "Address":"TBA",
    "imageurl":"TBA", 
    "Services":"TBA" ,
    "Closures": "TBA",
    "History":"TBA" },
    {"Name": "Louisville Kentucky Temple",
    "Location":"Crestwood, Kentucky, United States",
    "Dedicated":"19 March 2000" ,
    "Appointment": "https://www.churchofjesuschrist.org/temples/schedule/appointment?lang=eng"  ,
    "Phone":"TBA",
    "Address":"TBA",
    "imageurl":"TBA", 
    "Services":"TBA" ,
    "Closures": "TBA",
    "History":"TBA" },
    {"Name": "Lubbock Texas Temple",
    "Location":"Lubbock, Texas, United States",
    "Dedicated":"21 April 2002" ,
    "Appointment": "https://www.churchofjesuschrist.org/temples/schedule/appointment?lang=eng"  ,
    "Phone":"TBA",
    "Address":"TBA",
    "imageurl":"TBA", 
    "Services":"TBA" ,
    "Closures": "TBA",
    "History":"TBA" },
    {"Name": "Madrid Spain Temple",
    "Location":"Madrid, Madrid, Spain",
    "Dedicated":"19 March 1999" ,
    "Appointment": "https://www.churchofjesuschrist.org/temples/schedule/appointment?lang=eng"  ,
    "Phone":"TBA",
    "Address":"TBA",
    "imageurl":"TBA", 
    "Services":"TBA" ,
    "Closures": "TBA",
    "History":"TBA" },
    {"Name": "Manaus Brazil Temple",
    "Location":"Manaus, Amazonas, Brazil",
    "Dedicated":"10 June 2012" ,
    "Appointment": "https://www.churchofjesuschrist.org/temples/schedule/appointment?lang=eng"  ,
    "Phone":"TBA",
    "Address":"TBA",
    "imageurl":"TBA", 
    "Services":"TBA" ,
    "Closures": "TBA",
    "History":"TBA" },
    {"Name": "Manhattan New York Temple",
    "Location":"New York, New York, United States",
    "Dedicated":"13 June 2004" ,
    "Appointment": "https://www.churchofjesuschrist.org/temples/schedule/appointment?lang=eng"  ,
    "Phone":"TBA",
    "Address":"TBA",
    "imageurl":"TBA", 
    "Services":"TBA" ,
    "Closures": "TBA",
    "History":"TBA" },
    {"Name": "Manila Philippines Temple",
    "Location":"Quezon City, Metro Manila, Philippines",
    "Dedicated":"25 September 1984" ,
    "Appointment": "https://www.churchofjesuschrist.org/temples/schedule/appointment?lang=eng"  ,
    "Phone":"TBA",
    "Address":"TBA",
    "imageurl":"TBA", 
    "Services":"TBA" ,
    "Closures": "TBA",
    "History":"TBA" },
    {"Name": "Medford Oregon Temple",
    "Location":"Central Point, Oregon, United States",
    "Dedicated":"16 April 2000" ,
    "Appointment": "https://www.churchofjesuschrist.org/temples/schedule/appointment?lang=eng"  ,
    "Phone":"TBA",
    "Address":"TBA",
    "imageurl":"TBA", 
    "Services":"TBA" ,
    "Closures": "TBA",
    "History":"TBA" },
    {"Name": "Melbourne Australia Temple",
    "Location":"Wantirna South, Victoria, Australia",
    "Dedicated":"16 June 2000" ,
    "Appointment": "https://www.churchofjesuschrist.org/temples/schedule/appointment?lang=eng"  ,
    "Phone":"TBA",
    "Address":"TBA",
    "imageurl":"TBA", 
    "Services":"TBA" ,
    "Closures": "TBA",
    "History":"TBA" },
    {"Name": "Memphis Tennessee Temple",
    "Location":"Bartlett, Tennessee, United States",
    "Dedicated":"23 April 2000" ,
    "Appointment": "https://www.churchofjesuschrist.org/temples/schedule/appointment?lang=eng"  ,
    "Phone":"TBA",
    "Address":"TBA",
    "imageurl":"TBA", 
    "Services":"TBA" ,
    "Closures": "TBA",
    "History":"TBA" },
    {"Name": "Mérida Mexico Temple",
    "Location":"Mérida, Yucatan, Mexico",
    "Dedicated":"8 July 2000" ,
    "Appointment": "https://www.churchofjesuschrist.org/temples/schedule/appointment?lang=eng"  ,
    "Phone":"TBA",
    "Address":"TBA",
    "imageurl":"TBA", 
    "Services":"TBA" ,
    "Closures": "TBA",
    "History":"TBA" },
    {"Name": "Meridian Idaho Temple",
    "Location":"Meridian, Idaho, United States",
    "Dedicated":"19 November 2017" ,
     "Appointment": "https://www.churchofjesuschrist.org/temples/schedule/appointment?lang=eng"  ,
    "Phone":"TBA",
    "Address":"TBA",
    "imageurl":"TBA", 
    "Services":"TBA" ,
    "Closures": "TBA",
    "History":"TBA" },
    {"Name": "Mesa Arizona Temple",
    "Location":"Mesa, Arizona, United States",
    "Dedicated":"23 October 1927" ,
    "Appointment": "https://www.churchofjesuschrist.org/temples/schedule/appointment?lang=eng"  ,
    "Phone":"TBA",
    "Address":"TBA",
    "imageurl":"TBA", 
    "Services":"TBA" ,
    "Closures": "TBA",
    "History":"TBA" },
    {"Name": "Mexico City Mexico Temple",
    "Location":"México, Distrito Federal, Mexico",
    "Dedicated":"2 December 1983" ,
    "Appointment": "https://www.churchofjesuschrist.org/temples/schedule/appointment?lang=eng"  ,
    "Phone":"TBA",
    "Address":"TBA",
    "imageurl":"TBA", 
    "Services":"TBA" ,
    "Closures": "TBA",
    "History":"TBA" },
    {"Name": "Monterrey Mexico Temple",
    "Location":"Monterrey, Nuevo Leon, Mexico",
    "Dedicated":"28 April 2002" ,
    "Appointment": "https://www.churchofjesuschrist.org/temples/schedule/appointment?lang=eng"  ,
    "Phone":"TBA",
    "Address":"TBA",
    "imageurl":"TBA", 
    "Services":"TBA" ,
    "Closures": "TBA",
    "History":"TBA" },
    {"Name": "Montevideo Uruguay Temple",
    "Location":"Carrasco, Montevideo, Uruguay",
    "Dedicated":"18 March 2001" ,
    "Appointment": "https://www.churchofjesuschrist.org/temples/schedule/appointment?lang=eng"  ,
     "Phone":"TBA",
    "Address":"TBA",
    "imageurl":"TBA", 
    "Services":"TBA" ,
    "Closures": "TBA",
    "History":"TBA" },
    {"Name": "Monticello Utah Temple",
    "Location":"Monticello, Utah, United States",
    "Dedicated":"26 July 1998" ,
    "Appointment": "https://www.churchofjesuschrist.org/temples/schedule/appointment?lang=eng"  ,
    "Phone":"TBA",
    "Address":"TBA",
    "imageurl":"TBA", 
    "Services":"TBA" ,
    "Closures": "TBA",
    "History":"TBA" },
    {"Name": "Montreal Quebec Temple",
    "Location":"Longueuil, Quebec, Canada",
    "Dedicated":"4 June 2000" ,
    "Appointment": "https://www.churchofjesuschrist.org/temples/schedule/appointment?lang=eng"  ,
    "Phone":"TBA",
    "Address":"TBA",
    "imageurl":"TBA", 
    "Services":"TBA" ,
    "Closures": "TBA",
    "History":"TBA" },
    {"Name": "Mount Timpanogos Utah Temple",
    "Location":"American Fork, Utah, United States",
    "Dedicated":"13 October 1996" ,
    "Appointment": "https://www.churchofjesuschrist.org/temples/schedule/appointment?lang=eng"  ,
    "Phone":"TBA",
    "Address":"TBA",
    "imageurl":"TBA", 
    "Services":"TBA" ,
    "Closures": "TBA",
    "History":"TBA" },
    {"Name": "Nashville Tennessee Temple",
    "Location":"Franklin, Tennessee, United States",
    "Dedicated":"21 May 2000" ,
    "Appointment": "https://www.churchofjesuschrist.org/temples/schedule/appointment?lang=eng"  ,
    "Phone":"TBA",
    "Address":"TBA",
    "imageurl":"TBA", 
    "Services":"TBA" ,
    "Closures": "TBA",
    "History":"TBA" },
    {"Name": "Nauvoo Illinois Temple",
    "Location":"Nauvoo, Illinois, United States",
    "Dedicated":"27 June 2002" ,
    "Appointment": "https://www.churchofjesuschrist.org/temples/schedule/appointment?lang=eng"  ,
    "Phone":"TBA",
    "Address":"TBA",
    "imageurl":"TBA", 
    "Services":"TBA" ,
    "Closures": "TBA",
    "History":"TBA" },
    {"Name": "Newport Beach California Temple",
    "Location":"Newport Beach, California, United States",
    "Dedicated":"28 August 2005" ,
    "Appointment": "https://www.churchofjesuschrist.org/temples/schedule/appointment?lang=eng"  ,
    "Phone":"TBA",
    "Address":"TBA",
    "imageurl":"TBA", 
    "Services":"TBA" ,
    "Closures": "TBA",
    "History":"TBA" },
    {"Name": "Nuku'alofa Tonga Temple",
    "Location":"Liahona, Tongatapu, Tonga",
    "Dedicated":"9 August 1983" ,
    "Appointment": "https://www.churchofjesuschrist.org/temples/schedule/appointment?lang=eng"  ,
    "Phone":"TBA",
    "Address":"TBA",
    "imageurl":"TBA", 
    "Services":"TBA" ,
    "Closures": "TBA",
    "History":"TBA" },
    {"Name": "Oakland California Temple",
    "Location":"Oakland, California, United States",
    "Dedicated":"17 November 1964" ,
    "Appointment": "https://www.churchofjesuschrist.org/temples/schedule/appointment?lang=eng"  ,
    "Phone":"TBA",
    "Address":"TBA",
    "imageurl":"TBA", 
    "Services":"TBA" ,
    "Closures": "TBA",
    "History":"TBA" },
    {"Name": "Oaxaca Mexico Temple",
    "Location":"Oaxaca, Oaxaca, Mexico",
    "Dedicated":"11 March 2000" ,
    "Appointment": "https://www.churchofjesuschrist.org/temples/schedule/appointment?lang=eng"  ,
    "Phone":"TBA",
    "Address":"TBA",
    "imageurl":"TBA", 
    "Services":"TBA" ,
    "Closures": "TBA",
    "History":"TBA" },
    {"Name": "Ogden Utah Temple",
    "Location":"Ogden, Utah, United States",
    "Dedicated":"18 January 1972" ,
    "Appointment": "https://www.churchofjesuschrist.org/temples/schedule/appointment?lang=eng"  ,
    "Phone":"TBA",
    "Address":"TBA",
    "imageurl":"TBA", 
    "Services":"TBA" ,
    "Closures": "TBA",
    "History":"TBA" },
    {"Name": "Oklahoma City Oklahoma Temple",
    "Location":"Yukon, Oklahoma, United States",
    "Dedicated":"30 July 2000" ,
    "Appointment": "https://www.churchofjesuschrist.org/temples/schedule/appointment?lang=eng"  ,
    "Phone":"TBA",
    "Address":"TBA",
    "imageurl":"TBA", 
    "Services":"TBA" ,
    "Closures": "TBA",
    "History":"TBA" },
    {"Name": "Oquirrh Mountain Utah Temple",
    "Location":"South Jordan, Utah, United States",
    "Dedicated":"21 August 2009" ,
    "Appointment": "https://www.churchofjesuschrist.org/temples/schedule/appointment?lang=eng"  ,
    "Phone":"TBA",
    "Address":"TBA",
    "imageurl":"TBA", 
    "Services":"TBA" ,
    "Closures": "TBA",
    "History":"TBA" },
    {"Name": "Orlando Florida Temple",
    "Location":"Windermere, Florida, United States",
    "Dedicated":"9 October 1994" ,
    "Appointment": "https://www.churchofjesuschrist.org/temples/schedule/appointment?lang=eng"  ,
    "Phone":"TBA",
    "Address":"TBA",
    "imageurl":"TBA", 
    "Services":"TBA" ,
    "Closures": "TBA",
    "History":"TBA" },
    {"Name": "Palmyra New York Temple",
    "Location":"Palmyra, New York, United States",
    "Dedicated":"6 April 2000" ,
    "Appointment": "https://www.churchofjesuschrist.org/temples/schedule/appointment?lang=eng"  ,
    "Phone":"TBA",
    "Address":"TBA",
    "imageurl":"TBA", 
    "Services":"TBA" ,
    "Closures": "TBA",
    "History":"TBA" },
    {"Name": "Panama City Panama Temple",
    "Location":"Corozal, Ancon, Panamá, Panama",
    "Dedicated":"10 August 2008" ,
    "Appointment": "https://www.churchofjesuschrist.org/temples/schedule/appointment?lang=eng"  ,
    "Phone":"TBA",
    "Address":"TBA",
    "imageurl":"TBA", 
    "Services":"TBA" ,
    "Closures": "TBA",
    "History":"TBA" },
    {"Name": "Papeete Tahiti Temple",
    "Location":"Papeete, Tahiti, French Polynesia",
    "Dedicated":"27 October 1983" ,
    "Appointment": "https://www.churchofjesuschrist.org/temples/schedule/appointment?lang=eng"  ,
    "Phone":"TBA",
    "Address":"TBA",
    "imageurl":"TBA", 
    "Services":"TBA" ,
    "Closures": "TBA",
    "History":"TBA" },
    {"Name": "Paris France Temple",
    "Location":"Le Chesnay, France",
    "Dedicated":"21 May 2017" ,
    "Appointment": "https://www.churchofjesuschrist.org/temples/schedule/appointment?lang=eng"  ,
    "Phone":"TBA",
    "Address":"TBA",
    "imageurl":"TBA", 
    "Services":"TBA" ,
    "Closures": "TBA",
    "History":"TBA" },
    {"Name": "Payson Utah Temple",
    "Location":"Payson, Utah, United States",
    "Dedicated":"7 June 2015" ,
    "Appointment": "https://www.churchofjesuschrist.org/temples/schedule/appointment?lang=eng"  ,
    "Phone":"TBA",
    "Address":"TBA",
    "imageurl":"TBA", 
    "Services":"TBA" ,
    "Closures": "TBA",
    "History":"TBA" },
    {"Name": "Perth Australia Temple",
    "Location":"Yokine, Western Australia, Australia",
    "Dedicated":"20 May 2001" ,
    "Appointment": "https://www.churchofjesuschrist.org/temples/schedule/appointment?lang=eng"  ,
    "Phone":"TBA",
    "Address":"TBA",
    "imageurl":"TBA", 
    "Services":"TBA" ,
    "Closures": "TBA",
    "History":"TBA" },
    {"Name": "Philadelphia Pennsylvania Temple",
    "Location":"Philadelphia, Pennsylvania, United States",
    "Dedicated":"18 September 2016" ,
    "Appointment": "https://www.churchofjesuschrist.org/temples/schedule/appointment?lang=eng"  ,
    "Phone":"TBA",
    "Address":"TBA",
    "imageurl":"TBA", 
    "Services":"TBA" ,
    "Closures": "TBA",
    "History":"TBA" },
    {"Name": "Phoenix Arizona Temple",
    "Location":"Phoenix, Arizona, United States",
    "Dedicated":"16 November 2014" ,
    "Appointment": "https://www.churchofjesuschrist.org/temples/schedule/appointment?lang=eng"  ,
    "Phone":"TBA",
    "Address":"TBA",
    "imageurl":"TBA", 
    "Services":"TBA" ,
    "Closures": "TBA",
    "History":"TBA" },
    {"Name": "Pocatello Idaho Temple",
    "Location":"Pocatello, Idaho, United States",
    "Dedicated":"7 November 2021" ,
    "Appointment": "https://www.churchofjesuschrist.org/temples/schedule/appointment?lang=eng"  ,
    "Phone":"TBA",
    "Address":"TBA",
    "imageurl":"TBA", 
    "Services":"TBA" ,
    "Closures": "TBA",
    "History":"TBA" },
    {"Name": "Port{au{Prince Haiti Temple",
    "Location":"Port{au{Prince, Haiti",
    "Dedicated":"1 September 2019" ,
    "Appointment": "https://www.churchofjesuschrist.org/temples/schedule/appointment?lang=eng"  ,
    "Phone":"TBA",
    "Address":"TBA",
    "imageurl":"TBA", 
    "Services":"TBA" ,
    "Closures": "TBA",
    "History":"TBA" },
    {"Name": "Portland Oregon Temple",
    "Location":"Lake Oswego, Oregon, United States",
    "Dedicated":"19 August 1989" ,
    "Appointment": "https://www.churchofjesuschrist.org/temples/schedule/appointment?lang=eng"  ,
    "Phone":"TBA",
    "Address":"TBA",
    "imageurl":"TBA", 
    "Services":"TBA" ,
    "Closures": "TBA",
    "History":"TBA" },
    {"Name": "Porto Alegre Brazil Temple",
    "Location":"Porto Alegre, Rio Grande do Sul, Brazil",
    "Dedicated":"17 December 2000" ,
    "Appointment": "https://www.churchofjesuschrist.org/temples/schedule/appointment?lang=eng"  ,
    "Phone":"TBA",
    "Address":"TBA",
    "imageurl":"TBA", 
    "Services":"TBA" ,
    "Closures": "TBA",
    "History":"TBA" },
    {"Name": "Praia Cape Verde Temple",
    "Location":"Praia, Cape Verde",
    "Dedicated":"19 June 2022" ,
    "Appointment": "https://www.churchofjesuschrist.org/temples/schedule/appointment?lang=eng"  ,
    "Phone":"TBA",
    "Address":"TBA",
    "imageurl":"TBA", 
    "Services":"TBA" ,
    "Closures": "TBA",
    "History":"TBA" },
    {"Name": "Preston England Temple",
    "Location":"Chorley, Lancashire, England",
    "Dedicated":"7 June 1998" ,
    "Appointment": "https://www.churchofjesuschrist.org/temples/schedule/appointment?lang=eng"  ,
    "Phone":"TBA",
    "Address":"TBA",
    "imageurl":"TBA", 
    "Services":"TBA" ,
    "Closures": "TBA",
    "History":"TBA" },
    {"Name": "Provo City Center Temple",
    "Location":"Provo, Utah, United States",
    "Dedicated":"20 March 2016" ,
    "Appointment": "https://www.churchofjesuschrist.org/temples/schedule/appointment?lang=eng"  ,
    "Phone":"TBA",
    "Address":"TBA",
    "imageurl":"TBA", 
    "Services":"TBA" ,
    "Closures": "TBA",
    "History":"TBA" },
    {"Name": "Provo Utah Temple",
    "Location":"Provo, Utah, United States",
    "Dedicated":"9 February 1972" ,
    "Appointment": "https://www.churchofjesuschrist.org/temples/schedule/appointment?lang=eng"  ,
    "Phone":"TBA",
    "Address":"TBA",
    "imageurl":"TBA", 
    "Services":"TBA" ,
    "Closures": "TBA",
    "History":"TBA" },
    {"Name": "Quetzaltenango Guatemala Temple",
    "Location":"Quetzaltenango, Quezaltenango, Guatemala",
    "Dedicated":"11 December 2011" ,
    "Appointment": "https://www.churchofjesuschrist.org/temples/schedule/appointment?lang=eng"  ,
    "Phone":"TBA",
    "Address":"TBA",
    "imageurl":"TBA", 
    "Services":"TBA" ,
    "Closures": "TBA",
    "History":"TBA" },
    {"Name": "Raleigh North Carolina Temple",
    "Location":"Apex, North Carolina, United States",
    "Dedicated":"18 December 1999" ,
    "Appointment": "https://www.churchofjesuschrist.org/temples/schedule/appointment?lang=eng"  ,
    "Phone":"TBA",
    "Address":"TBA",
    "imageurl":"TBA", 
    "Services":"TBA" ,
    "Closures": "TBA",
    "History":"TBA" },
    {"Name": "Recife Brazil Temple",
    "Location":"Recife, Pernambuco, Brazil",
    "Dedicated":"15 December 2000" ,
    "Appointment": "https://www.churchofjesuschrist.org/temples/schedule/appointment?lang=eng"  ,
    "Phone":"TBA",
    "Address":"TBA",
    "imageurl":"TBA", 
    "Services":"TBA" ,
    "Closures": "TBA",
    "History":"TBA" },
    {"Name": "Redlands California Temple",
    "Location":"Redlands, California, United States",
    "Dedicated":"14 September 2003" ,
    "Appointment": "https://www.churchofjesuschrist.org/temples/schedule/appointment?lang=eng"  ,
    "Phone":"TBA",
    "Address":"TBA",
    "imageurl":"TBA", 
    "Services":"TBA" ,
    "Closures": "TBA",
    "History":"TBA" },
    {"Name": "Regina Saskatchewan Temple",
    "Location":"Regina, Saskatchewan, Canada",
    "Dedicated":"14 November 1999" ,
    "Appointment": "https://www.churchofjesuschrist.org/temples/schedule/appointment?lang=eng"  ,
    "Phone":"TBA",
    "Address":"TBA",
    "imageurl":"TBA", 
    "Services":"TBA" ,
    "Closures": "TBA",
    "History":"TBA" },
    {"Name": "Reno Nevada Temple",
    "Location":"Reno, Nevada, United States",
    "Dedicated":"23 April 2000" ,
    "Appointment": "https://www.churchofjesuschrist.org/temples/schedule/appointment?lang=eng"  ,
    "Phone":"TBA",
    "Address":"TBA",
    "imageurl":"TBA", 
    "Services":"TBA" ,
    "Closures": "TBA",
    "History":"TBA" },
    {"Name": "Rexburg Idaho Temple",
    "Location":"Rexburg, Idaho, United States",
    "Dedicated":"10 February 2008" ,
    "Appointment": "https://www.churchofjesuschrist.org/temples/schedule/appointment?lang=eng"  ,
    "Phone":"TBA",
    "Address":"TBA",
    "imageurl":"TBA", 
    "Services":"TBA" ,
    "Closures": "TBA",
    "History":"TBA" },
    {"Name": "Rio de Janeiro Brazil Temple",
    "Location":"Rio de Janeiro, Brazil",
    "Dedicated":"8 May 2022" ,
    "Appointment": "https://www.churchofjesuschrist.org/temples/schedule/appointment?lang=eng"  ,
    "Phone":"TBA",
    "Address":"TBA",
    "imageurl":"TBA", 
    "Services":"TBA" ,
    "Closures": "TBA",
    "History":"TBA" },
    {"Name": "Rome Italy Temple",
    "Location":"Rome, Roma, Italy",
    "Dedicated":"10 March 2019" ,
    "Appointment": "https://www.churchofjesuschrist.org/temples/schedule/appointment?lang=eng"  ,
    "Phone":"TBA",
    "Address":"TBA",
    "imageurl":"TBA", 
    "Services":"TBA" ,
    "Closures": "TBA",
    "History":"TBA" },
    {"Name": "Sacramento California Temple",
    "Location":"Rancho Cordova, California, United States",
    "Dedicated":"3 September 2006" ,
    "Appointment": "https://www.churchofjesuschrist.org/temples/schedule/appointment?lang=eng"  ,
    "Phone":"TBA",
    "Address":"TBA",
    "imageurl":"TBA", 
    "Services":"TBA" ,
    "Closures": "TBA",
    "History":"TBA" },
    {"Name": "San Antonio Texas Temple",
    "Location":"San Antonio, Texas, United States",
    "Dedicated":"22 May 2005" ,
    "Appointment": "https://www.churchofjesuschrist.org/temples/schedule/appointment?lang=eng"  ,
    "Phone":"TBA",
    "Address":"TBA",
    "imageurl":"TBA", 
    "Services":"TBA" ,
    "Closures": "TBA",
    "History":"TBA" },
    {"Name": "San Diego California Temple",
    "Location":"San Diego, California, United States",
    "Dedicated":"25 April 1993" ,
    "Appointment": "https://www.churchofjesuschrist.org/temples/schedule/appointment?lang=eng"  ,
    "Phone":"TBA",
    "Address":"TBA",
    "imageurl":"TBA", 
    "Services":"TBA" ,
    "Closures": "TBA",
    "History":"TBA" },
    {"Name": "San José Costa Rica Temple",
    "Location":"Belén, Heredia, Costa Rica",
    "Dedicated":"4 June 2000" ,
    "Appointment": "https://www.churchofjesuschrist.org/temples/schedule/appointment?lang=eng"  ,
    "Phone":"TBA",
    "Address":"TBA",
    "imageurl":"TBA", 
    "Services":"TBA" ,
    "Closures": "TBA",
    "History":"TBA" },
    {"Name": "San Salvador El Salvador Temple",
    "Location":"Antiguo Cuscatlán, La Libertad, El Salvador",
    "Dedicated":"21 August 2011" ,
    "Appointment": "https://www.churchofjesuschrist.org/temples/schedule/appointment?lang=eng"  ,
    "Phone":"TBA",
    "Address":"TBA",
    "imageurl":"TBA", 
    "Services":"TBA" ,
    "Closures": "TBA",
    "History":"TBA" },
    {"Name": "Santiago Chile Temple",
    "Location":"Providencia, Santiago, Chile",
    "Dedicated":"15 September 1983" ,
    "Appointment": "https://www.churchofjesuschrist.org/temples/schedule/appointment?lang=eng"  ,
    "Phone":"TBA",
    "Address":"TBA",
    "imageurl":"TBA", 
    "Services":"TBA" ,
    "Closures": "TBA",
    "History":"TBA" },
    {"Name": "Santo Domingo Dominican Republic Temple",
    "Location":"Santo Domingo, Distrito Nacional, Dominican Republic",
    "Dedicated":"17 September 2000" ,
    "Appointment": "https://www.churchofjesuschrist.org/temples/schedule/appointment?lang=eng"  ,
    "Phone":"TBA",
    "Address":"TBA",
    "imageurl":"TBA", 
    "Services":"TBA" ,
    "Closures": "TBA",
    "History":"TBA" },
    {"Name": "São Paulo Brazil Temple",
    "Location":"São Paulo, Sao Paulo, Brazil",
    "Dedicated":"30 October 1978" ,
    "Appointment": "https://www.churchofjesuschrist.org/temples/schedule/appointment?lang=eng"  ,
    "Phone":"TBA",
    "Address":"TBA",
    "imageurl":"TBA", 
    "Services":"TBA" ,
    "Closures": "TBA",
    "History":"TBA" },
    {"Name": "Sapporo Japan Temple",
    "Location":"Atsubetsu{ku Sapporo, Hokkaido, Japan",
    "Dedicated":"21 August 2016" ,
    "Appointment": "https://www.churchofjesuschrist.org/temples/schedule/appointment?lang=eng"  ,
    "Phone":"TBA",
    "Address":"TBA",
    "imageurl":"TBA", 
    "Services":"TBA" ,
    "Closures": "TBA",
    "History":"TBA" },
    {"Name": "Seattle Washington Temple",
    "Location":"Bellevue, Washington, United States",
    "Dedicated":"17 November 1980" ,
    "Appointment": "https://www.churchofjesuschrist.org/temples/schedule/appointment?lang=eng"  ,
    "Phone":"TBA",
    "Address":"TBA",
    "imageurl":"TBA", 
    "Services":"TBA" ,
    "Closures": "TBA",
    "History":"TBA" },
    {"Name": "Seoul Korea Temple",
    "Location":"Seoul, Seoul{teukbyeolsi, South Korea",
    "Dedicated":"14 December 1985" ,
    "Appointment": "https://www.churchofjesuschrist.org/temples/schedule/appointment?lang=eng"  ,
    "Phone":"TBA",
    "Address":"TBA",
    "imageurl":"TBA", 
    "Services":"TBA" ,
    "Closures": "TBA",
    "History":"TBA" },
    {"Name": "Snowflake Arizona Temple",
    "Location":"Snowflake, Arizona, United States",
    "Dedicated":"3 March 2002" ,
    "Appointment": "https://www.churchofjesuschrist.org/temples/schedule/appointment?lang=eng"  ,
    "Phone":"TBA",
    "Address":"TBA",
    "imageurl":"TBA", 
    "Services":"TBA" ,
    "Closures": "TBA",
    "History":"TBA" },
    {"Name": "Spokane Washington Temple",
    "Location":"Spokane, Washington, United States",
    "Dedicated":"21 August 1999" ,
    "Appointment": "https://www.churchofjesuschrist.org/temples/schedule/appointment?lang=eng"  ,
    "Phone":"TBA",
    "Address":"TBA",
    "imageurl":"TBA", 
    "Services":"TBA" ,
    "Closures": "TBA",
    "History":"TBA" },
    {"Name": "St. Louis Missouri Temple",
    "Location":"St. Louis, Missouri, United States",
    "Dedicated":"1 June 1997" ,
    "Appointment": "https://www.churchofjesuschrist.org/temples/schedule/appointment?lang=eng"  ,
    "Phone":"TBA",
    "Address":"TBA",
    "imageurl":"TBA", 
    "Services":"TBA" ,
    "Closures": "TBA",
    "History":"TBA" },
    {"Name": "St. Paul Minnesota Temple",
    "Location":"Oakdale, Minnesota, United States",
    "Dedicated":"9 January 2000" ,
    "Appointment": "https://www.churchofjesuschrist.org/temples/schedule/appointment?lang=eng"  ,
    "Phone":"TBA",
    "Address":"TBA",
    "imageurl":"TBA", 
    "Services":"TBA" ,
    "Closures": "TBA",
    "History":"TBA" },
    {"Name": "Star Valley Wyoming Temple",
    "Location": "Afton, Wyoming, United States",
    "Dedicated": "30 October 2016" ,
    "Appointment": "https://www.churchofjesuschrist.org/temples/schedule/appointment?lang=eng"  ,
    "Phone":"TBA",
    "Address":"TBA",
    "imageurl":"TBA", 
    "Services":"TBA" ,
    "Closures": "TBA",
    "History":"TBA" },
    {"Name": "Stockholm Sweden Temple",
    "Location":"Vasterhaninge, Sweden",
    "Dedicated":"2 July 1985" ,
    "Appointment": "https://www.churchofjesuschrist.org/temples/schedule/appointment?lang=eng"  ,
    "Phone":"TBA",
    "Address":"TBA",
    "imageurl":"TBA", 
    "Services":"TBA" ,
    "Closures": "TBA",
    "History":"TBA" },
    {"Name": "Suva Fiji Temple",
    "Location":"Samabula, Suva, Fiji",
    "Dedicated":"18 June 2000" ,
    "Appointment": "https://www.churchofjesuschrist.org/temples/schedule/appointment?lang=eng"  ,
    "Phone":"TBA",
    "Address":"TBA",
    "imageurl":"TBA", 
    "Services":"TBA" ,
    "Closures": "TBA",
    "History":"TBA" },
    {"Name": "Sydney Australia Temple",
    "Location":"Carlingford, New South Wales, Australia",
    "Dedicated":"20 September 1984" ,
    "Appointment": "https://www.churchofjesuschrist.org/temples/schedule/appointment?lang=eng"  ,
    "Phone":"TBA",
    "Address":"TBA",
    "imageurl":"TBA", 
    "Services":"TBA" ,
    "Closures": "TBA",
    "History":"TBA" },
    {"Name": "Taipei Taiwan Temple",
    "Location":"Taipei, Taipei, Taiwan",
    "Dedicated":"17 November 1984" ,
    "Appointment": "https://www.churchofjesuschrist.org/temples/schedule/appointment?lang=eng"  ,
    "Phone":"TBA",
    "Address":"TBA",
    "imageurl":"TBA", 
    "Services":"TBA" ,
    "Closures": "TBA",
    "History":"TBA" },
    {"Name": "Tampico Mexico Temple",
    "Location":"Ciudad Madero, Tamaulipas, Mexico",
    "Dedicated":"20 May 2000" ,
    "Appointment": "https://www.churchofjesuschrist.org/temples/schedule/appointment?lang=eng"  ,
    "Phone":"TBA",
    "Address":"TBA",
    "imageurl":"TBA", 
    "Services":"TBA" ,
    "Closures": "TBA",
    "History":"TBA" },
    {"Name": "Tegucigalpa Honduras Temple",
    "Location":"Comayagüela, Francisco Morazán, Honduras",
    "Dedicated":"17 March 2013" ,
    "Appointment": "https://www.churchofjesuschrist.org/temples/schedule/appointment?lang=eng"  ,
    "Phone":"TBA",
    "Address":"TBA",
    "imageurl":"TBA", 
    "Services":"TBA" ,
    "Closures": "TBA",
    "History":"TBA" },
    {"Name": "The Gila Valley Arizona Temple",
    "Location":"Central, Arizona, United States",
    "Dedicated":"23 May 2010" ,
    "Appointment": "https://www.churchofjesuschrist.org/temples/schedule/appointment?lang=eng"  ,
    "Phone":"TBA",
    "Address":"TBA",
    "imageurl":"TBA", 
    "Services":"TBA" ,
    "Closures": "TBA",
    "History":"TBA" },
    {"Name": "The Hague Netherlands Temple",
    "Location":"Zoetermeer, Zuid{Holland, Netherlands",
    "Dedicated":"8 September 2002" ,
    "Appointment": "https://www.churchofjesuschrist.org/temples/schedule/appointment?lang=eng"  ,
    "Phone":"TBA",
    "Address":"TBA",
    "imageurl":"TBA", 
    "Services":"TBA" ,
    "Closures": "TBA",
    "History":"TBA" },
    {"Name": "Tijuana Mexico Temple",
    "Location":"Tijuana, Baja California, Mexico",
    "Dedicated":"13 December 2015" ,
    "Appointment": "https://www.churchofjesuschrist.org/temples/schedule/appointment?lang=eng"  ,
    "Phone":"TBA",
    "Address":"TBA",
    "imageurl":"TBA", 
    "Services":"TBA" ,
    "Closures": "TBA",
    "History":"TBA" },
    {"Name": "Tokyo Japan Temple",
    "Location":"Minato{ku, Tokyo, Japan",
    "Dedicated":"27 October 1980" ,
    "Appointment": "https://www.churchofjesuschrist.org/temples/schedule/appointment?lang=eng"  ,
    "Phone":"TBA",
    "Address":"TBA",
    "imageurl":"TBA", 
    "Services":"TBA" ,
    "Closures": "TBA",
    "History":"TBA" },
    {"Name": "Toronto Ontario Temple",
    "Location":"Brampton, Ontario, Canada",
    "Dedicated":"25 August 1990" ,
    "Appointment": "https://www.churchofjesuschrist.org/temples/schedule/appointment?lang=eng"  ,
    "Phone":"TBA",
    "Address":"TBA",
    "imageurl":"TBA", 
    "Services":"TBA" ,
    "Closures": "TBA",
    "History":"TBA" },
    {"Name": "Trujillo Peru Temple",
    "Location":"Trujillo, La Libertad, Peru",
    "Dedicated":"21 June 2015" ,
    "Appointment": "https://www.churchofjesuschrist.org/temples/schedule/appointment?lang=eng"  ,
    "Phone":"TBA",
    "Address":"TBA",
    "imageurl":"TBA", 
    "Services":"TBA" ,
    "Closures": "TBA",
    "History":"TBA" },
    {"Name": "Tucson Arizona Temple",
    "Location":"Tucson, Arizona, United States",
    "Dedicated":"13 August 2017" ,
    "Appointment": "https://www.churchofjesuschrist.org/temples/schedule/appointment?lang=eng"  ,
    "Phone":"TBA",
    "Address":"TBA",
    "imageurl":"TBA", 
    "Services":"TBA" ,
    "Closures": "TBA",
    "History":"TBA" },
    {"Name": "Tuxtla Gutiérrez Mexico Temple",
    "Location":"Tuxtla Gutiérrez, Chiapas, Mexico",
    "Dedicated":"12 March 2000" ,
    "Appointment": "https://www.churchofjesuschrist.org/temples/schedule/appointment?lang=eng"  ,
    "Phone":"TBA",
    "Address":"TBA",
    "imageurl":"TBA", 
    "Services":"TBA" ,
    "Closures": "TBA",
    "History":"TBA" },
    {"Name": "Twin Falls Idaho Temple",
    "Location":"Twin Falls, Idaho, United States",
    "Dedicated":"24 August 2008" ,
    "Appointment": "https://www.churchofjesuschrist.org/temples/schedule/appointment?lang=eng"  ,
    "Phone":"TBA",
    "Address":"TBA",
    "imageurl":"TBA", 
    "Services":"TBA" ,
    "Closures": "TBA",
    "History":"TBA" },
    {"Name": "Vancouver British Columbia Temple",
    "Location":"Langley, British Columbia, Canada",
    "Dedicated":"2 May 2010" ,
    "Appointment": "https://www.churchofjesuschrist.org/temples/schedule/appointment?lang=eng"  ,
    "Phone":"TBA",
    "Address":"TBA",
    "imageurl":"TBA", 
    "Services":"TBA" ,
    "Closures": "TBA",
    "History":"TBA" },
    {"Name": "Veracruz Mexico Temple",
    "Location":"Boca del Rio, Veracruz, Mexico",
    "Dedicated":"9 July 2000" ,
    "Appointment": "https://www.churchofjesuschrist.org/temples/schedule/appointment?lang=eng"  ,
    "Phone":"TBA",
    "Address":"TBA",
    "imageurl":"TBA", 
    "Services":"TBA" ,
    "Closures": "TBA",
    "History":"TBA" },
    {"Name": "Vernal Utah Temple",
    "Location":"Vernal, Utah, United States",
    "Dedicated":"2 November 1997" ,
    "Appointment": "https://www.churchofjesuschrist.org/temples/schedule/appointment?lang=eng"  ,
    "Phone":"TBA",
    "Address":"TBA",
    "imageurl":"TBA", 
    "Services":"TBA" ,
    "Closures": "TBA",
    "History":"TBA" },
    {"Name": "Villahermosa Mexico Temple",
    "Location":"Villahermosa, Tabasco, Mexico",
    "Dedicated":"21 May 2000" ,
    "Appointment": "https://www.churchofjesuschrist.org/temples/schedule/appointment?lang=eng"  ,
    "Phone":"TBA",
    "Address":"TBA",
    "imageurl":"TBA", 
    "Services":"TBA" ,
    "Closures": "TBA",
    "History":"TBA" },
    {"Name": "Winnipeg Manitoba Temple",
    "Location":"Winnipeg, Manitoba, Canada",
    "Dedicated":"31 October 2021" ,
    "Appointment": "https://www.churchofjesuschrist.org/temples/schedule/appointment?lang=eng"  ,
    "Phone":"TBA",
    "Address":"TBA",
    "imageurl":"TBA", 
    "Services":"TBA" ,
    "Closures": "TBA",
    "History":"TBA" },
    {"Name": "Winter Quarters Nebraska Temple",
    "Location": "Omaha, Nebraska, United States",
    "Dedicated":"22 April 2001" ,
    "Appointment": "https://www.churchofjesuschrist.org/temples/schedule/appointment?lang=eng"  ,
    "Phone":"TBA",
    "Address":"TBA",
    "imageurl":"TBA", 
    "Services":"TBA" ,
    "Closures": "TBA",
    "History":"TBA" },
    {"Name": "Yigo Guam Temple",
    "Location":"Yigo, Guam",
    "Dedicated":"22 May 2022" ,
    "Appointment": "https://www.churchofjesuschrist.org/temples/schedule/appointment?lang=eng"  ,
    "Phone":"TBA",
	"Address":"TBA",
    "imageurl":"TBA",
	"Services": "TBA",
	"Closures":"TBA",
	"History": "TBA"}
	]
}